time(millisecond),datetime(utc),latitude,longitude,height_above_takeoff(feet),height_above_ground_at_drone_location(feet),ground_elevation_at_drone_location(feet),altitude_above_seaLevel(feet),height_sonar(feet),speed(mph),distance(feet),mileage(feet),satellites,gpslevel,voltage(v),max_altitude(feet),max_ascent(feet),max_speed(mph),max_distance(feet), xSpeed(mph), ySpeed(mph), zSpeed(mph), compass_heading(degrees), pitch(degrees), roll(degrees),isPhoto,isVideo,rc_elevator,rc_aileron,rc_throttle,rc_rudder,rc_elevator(percent),rc_aileron(percent),rc_throttle(percent),rc_rudder(percent),gimbal_heading(degrees),gimbal_pitch(degrees),gimbal_roll(degrees),battery_percent,voltageCell1,voltageCell2,voltageCell3,voltageCell4,voltageCell5,voltageCell6,current(A),battery_temperature(f),altitude(feet),ascent(feet),flycStateRaw,flycState,message
0,2024-03-30 02:26:13,-34.4415295969917,150.842426729788,0,Available with any HD 360 subscription,Available with any HD 360 subscription,60.873358903328,0.656168,0,0,0,13,4,0,60.873358903328,0,0,0,0,0,0,126.7, 13.2, 4.9,0,0,364,1684,364,364,-100,100,-100,-100,121.8,0,0,97,4.12,4.132,4.147,0,0,0,0,88.52,60.873358903328,0,41,Motors_Started,
100,2024-03-30 02:26:13,-34.4415295640711,150.842426752009,0,,,60.873358903328,0.656168,0,0.0137466539832,0.0137466539832,13,4,0,60.873358903328,0,0,0.0137466539832,0,0,0,127.1, 12.8, 5,0,0,364,1684,364,364,-100,100,-100,-100,122.2,0,0,97,4.12,4.132,4.147,0,0,0,0,88.52,60.873358903328,0,41,Motors_Started,
200,2024-03-30 02:26:13,-34.4415295645401,150.842426853117,0,,,60.873358903328,0.656168,0,0.038952100984,0.04416994892,13,4,0,60.873358903328,0,0,0.038952100984,0,0,0,127.8, 12.5, 4.3,0,0,364,1684,364,364,-100,100,-100,-100,122.5,0,0,97,4.12,4.132,4.147,0,0,0,0,88.52,60.873358903328,0,41,Motors_Started,
300,2024-03-30 02:26:13,-34.4415295181359,150.842426882642,0,,,60.873358903328,0.656168,0,0.054250001736,0.063289700188,13,4,0,60.873358903328,0,0,0.054250001736,0,0,0,127.2, 13, 4.7,0,0,364,1684,364,364,-100,100,-100,-100,122.6,0,0,97,4.12,4.132,4.147,0,0,0,0,88.52,60.873358903328,0,41,Motors_Started,
400,2024-03-30 02:26:14,-34.4415295282421,150.84242698862,0,,,60.873358903328,0.656168,0,0.081820540676,0.095390094916,13,4,0,60.873358903328,0,0,0.081820540676,0,0,0,128.2, 12.2, 3.5,0,0,364,1684,364,364,-100,100,-100,-100,123.6,0,0,97,4.12,4.132,4.147,0,0,0,0,88.52,60.873358903328,0,41,Motors_Started,
500,2024-03-30 02:26:14,-34.4415295015812,150.842427078464,0,,,60.873358903328,0.656168,0,0.110538389364,0.124120082712,13,4,0,60.873358903328,0,0,0.110538389364,0,0,-0.223694,125.9, 8.7, 0.5,0,0,364,1684,364,364,-100,100,-100,-100,122.3,0,0,97,4.12,4.132,4.147,0,0,0,0,88.52,60.873358903328,0,41,Motors_Started,
600,2024-03-30 02:26:14,-34.4415295345995,150.84242731031,0,,,60.873358903328,0.656168,0,0.176151908524,0.194913392064,13,4,0,60.873358903328,0,0,0.176151908524,0,0,-0.223694,122.3, 3, -1.8,0,0,364,1684,364,364,-100,100,-100,-100,119.5,0,0,97,4.12,4.132,4.147,0,0,0,0,88.52,60.873358903328,0,41,Motors_Started,
700,2024-03-30 02:26:14,-34.4415294903286,150.842427475099,0,,,60.873358903328,0.656168,0.223694,0.22760991542,0.247061687696,13,4,0,60.873358903328,0,0.223694,0.22760991542,0,-0.223694,0,123.1, 7.7, -3.7,0,0,508,1683,426,364,-78,100,-91,-100,119.8,0,0,97,4.12,4.132,4.147,0,0,0,0,88.52,60.873358903328,0,41,Motors_Started,"Setting new Return-To-Home altitude to 50m (164 ft). Data Recorder File Index is 118. Setting new Maximum Flight Altitude to 100m (328 ft)"
800,2024-03-30 02:26:14,-34.441529405249,150.842427576259,0,,,60.873358903328,0.656168,0.223694,0.264129601628,0.29053642662,13,4,0,60.873358903328,0,0.223694,0.264129601628,0,0,0.447388,125.1, 12.4, -0.3,0,0,508,1683,426,364,-78,100,-91,-100,120.9,0,0,97,4.12,4.132,4.147,0,0,0,0,88.52,60.873358903328,0,41,Motors_Started,
900,2024-03-30 02:26:14,-34.4415293633751,150.842427511608,0,,,60.873358903328,0.328084,0.223694,0.250209325592,0.315271335548,13,4,0,60.873358903328,0,0.223694,0.264129601628,0,0,0,125.4, 13, 3.5,0,0,1024,1024,615,364,0,0,-62,-100,121,0,0,97,4.12,4.132,4.147,0,0,0,0,88.52,60.873358903328,0,41,Motors_Started,
1000,2024-03-30 02:26:14,-34.4415294433285,150.842427496646,0,,,60.873358903328,0.656168,0,0.237455388176,0.34478675644,13,4,0,60.873358903328,0,0.223694,0.264129601628,0,0,0,124.5, 9.7, 4.5,0,0,1024,1024,1024,1009,0,0,0,-2,120.9,0,0,97,4.12,4.132,4.147,0,0,0,0,88.52,60.873358903328,0,41,Motors_Started,"Home Point Recorded. RTH Altitude:  50m."
1100,2024-03-30 02:26:14,-34.4415294425533,150.842427463982,0,,,60.873358903328,0.656168,0,0.227986555852,0.35461943392,13,4,0,60.873358903328,0,0.223694,0.264129601628,0,0,0,125.9, 8.2, 3.2,0,0,1024,1024,1024,1024,0,0,0,0,123.3,0,0,97,4.12,4.132,4.147,0,0,0,0,88.52,60.873358903328,0,41,Motors_Started,
1200,2024-03-30 02:26:14,-34.4415294360786,150.842427592943,0,,,60.873358903328,0.328084,0,0.266270021644,0.39349410708,13,4,0,60.873358903328,0,0.223694,0.266270021644,0,0,0,127.3, 7.5, 1.2,0,0,1024,1024,1024,1024,0,0,0,0,123.7,0,0,97,4.12,4.132,4.147,0,0,0,0,88.52,60.873358903328,0,6,P-GPS,
1300,2024-03-30 02:26:14,-34.4415293791906,150.842427668512,0,,,60.873358903328,0.328084,0,0.29342028498,0.42428150964,13,4,0,60.873358903328,0,0.223694,0.29342028498,0,0,0,126.4, 4.2, 0,0,0,1024,1024,1024,1024,0,0,0,0,123.7,0,0,97,4.12,4.132,4.147,0,0,0,0,88.52,60.873358903328,0,6,P-GPS,
1400,2024-03-30 02:26:15,-34.4415293703807,150.842427809535,0,,,60.873358903328,0.656168,0,0.33524279288,0.46683728528,13,4,0,60.873358903328,0,0.223694,0.33524279288,0,0,-0.223694,127.6, 1.6, -0.4,0,0,1024,1024,1024,1024,0,0,0,0,124.9,0,0,97,4.12,4.132,4.147,0,0,0,0,88.52,60.873358903328,0,6,P-GPS,
1500,2024-03-30 02:26:15,-34.4415293185832,150.842427873994,0,,,60.873358903328,0.656168,0,0.3589567044,0.49391733864,13,4,0,60.873358903328,0,0.223694,0.3589567044,0,0,0,129.3, 3.6, 1.4,0,0,1024,1024,1024,1024,0,0,0,0,126.3,0,0,97,4.12,4.132,4.147,0,0,0,0,88.52,60.873358903328,0,6,P-GPS,
1600,2024-03-30 02:26:15,-34.4415292237882,150.842427904592,0,,,60.873358903328,0.656168,0,0.37880906724,0.5297080222,13,4,0,60.873358903328,0,0.223694,0.37880906724,0,0,0,130.3, 6.2, 1.5,0,0,1024,1024,1024,1024,0,0,0,0,128.1,0,0,97,4.12,4.132,4.147,0,0,0,0,88.52,60.873358903328,0,6,P-GPS,
1700,2024-03-30 02:26:15,-34.4415291143926,150.842427914202,0,,,60.873358903328,0.328084,0,0.3975065744,0.56972442768,13,4,12.537,60.873358903328,0,0.223694,0.3975065744,0,0,0.223694,130, 6.6, -0.8,0,0,1024,1024,1024,1024,0,0,0,0,128.6,0,0,97,4.12,4.132,4.147,0,0,0,3.252,88.52,60.873358903328,0,6,P-GPS,
1800,2024-03-30 02:26:15,-34.4415290468382,150.84242797579,0,,,60.873358903328,0.328084,0,0.4252624808,0.60056104284,13,4,12.537,60.873358903328,0,0.223694,0.4252624808,0,0,0,131.8, 5.4, -0.3,0,0,1024,1024,1024,1024,0,0,0,0,129.6,0,0,97,4.12,4.132,4.147,0,0,0,3.252,88.52,60.873358903328,0,6,P-GPS,
1900,2024-03-30 02:26:15,-34.4415289667578,150.842427966114,0,,,60.873358903328,0.328084,0,0.43732941032,0.62992128,13,4,12.537,60.873358903328,0,0.223694,0.43732941032,0,0,0,132.5, 5.5, -0.7,0,0,1024,1024,1024,1024,0,0,0,0,130.5,0,0,97,4.12,4.132,4.147,0,0,0,3.252,88.52,60.873358903328,0,6,P-GPS,
2000,2024-03-30 02:26:15,-34.4415289128173,150.84242796467,0,,,60.873358903328,0.656168,0,0.44763124792,0.64960632,13,4,12.537,60.873358903328,0,0.223694,0.44763124792,0,0,0,131.6, 4.4, -2.3,0,0,1024,1024,1024,1024,0,0,0,0,130.7,0,0,97,4.12,4.132,4.147,0,0,0,3.252,88.52,60.873358903328,0,6,P-GPS,
2100,2024-03-30 02:26:15,-34.4415288772423,150.842427966701,0,,,60.873358903328,0.656168,0,0.4554954214,0.66260172724,13,4,12.537,60.873358903328,0,0.223694,0.4554954214,0,0,0,132.1, 3.2, -3.1,0,0,1024,1024,1033,1024,0,0,1,0,130.9,0,0,97,4.12,4.132,4.147,0,0,0,3.252,88.52,60.873358903328,0,6,P-GPS,
2200,2024-03-30 02:26:15,-34.4415288665564,150.842427997288,0,,,60.873358903328,0.656168,0,0.46526576292,0.67259844672,13,4,12.537,60.873358903328,0,0.223694,0.46526576292,0,0,0,132.4, 2.7, -2.2,0,0,1024,1024,1096,1024,0,0,11,0,131.3,0,0,97,4.12,4.132,4.147,0,0,0,3.252,88.52,60.873358903328,0,6,P-GPS,
2300,2024-03-30 02:26:15,-34.4415288144299,150.842427956379,0,,,60.873358903328,0.656168,0,0.46662074984,0.69525264692,13,4,12.537,60.873358903328,0,0.223694,0.46662074984,0,0,0,133.2, 2.5, -0.5,0,0,1024,1024,1598,1113,0,0,87,13,131.6,0,0,97,4.12,4.132,4.147,0,0,0,3.252,88.52,60.873358903328,0,6,P-GPS,
2400,2024-03-30 02:26:16,-34.4415287588348,150.84242798556,0,,,60.873358903328,0.656168,0,0.48609253524,0.71735238516,13,4,12.537,60.873358903328,0,0.223694,0.48609253524,0,0,0,132.9, 2.6, -1.1,0,0,1024,1024,1609,1040,0,0,89,2,132.5,0,0,97,4.12,4.132,4.147,0,0,0,3.252,88.52,60.873358903328,0,6,P-GPS,
2500,2024-03-30 02:26:16,-34.4415286892873,150.842428005319,0,,,60.873358903328,0.656168,0,0.50692915008,0.74341537812,13,4,12.537,60.873358903328,0,0.223694,0.50692915008,0,0,0,133.1, 2.4, -0.7,0,0,1024,1024,1556,1070,0,0,81,7,132.5,0,0,97,4.12,4.132,4.147,0,0,0,3.252,88.52,60.873358903328,0,6,P-GPS,
2600,2024-03-30 02:26:16,-34.4415286086011,150.842428112305,0,,,60.873358903328,0.656168,0,0.55053479452,0.78703742676,13,4,12.537,60.873358903328,0,0.223694,0.55053479452,0,0,0,133.3, 1.6, -1,0,0,1024,1024,1684,1024,0,0,100,0,132.7,0,0,97,4.12,4.132,4.147,0,0,0,3.252,88.52,60.873358903328,0,6,P-GPS,
2700,2024-03-30 02:26:16,-34.4415285106274,150.842428201747,0,,,60.873358903328,0.656168,0,0.59436025524,0.83178152268,13,4,12.472,60.873358903328,0,0.223694,0.59436025524,0,0,-0.223694,133.1, 1.5, -0.9,0,0,1024,1024,1024,1024,0,0,0,0,132.7,0,0,97,4.154,4.154,4.159,0,0,0,2.204,88.52,60.873358903328,0,6,P-GPS,
2800,2024-03-30 02:26:16,-34.4415284017171,150.842428333118,0,,,60.873358903328,0.656168,0,0.65032154312,0.88783139324,13,4,12.472,60.873358903328,0,0.223694,0.65032154312,0,0,-0.223694,132.7, 0.8, -0.9,0,0,1024,1024,1024,1024,0,0,0,0,132.7,0,0,97,4.154,4.154,4.159,0,0,0,2.204,88.52,60.873358903328,0,6,P-GPS,
2900,2024-03-30 02:26:16,-34.441528273425,150.842428412257,0,,,60.873358903328,0.656168,0,0.69962600664,0.94034779912,13,4,12.472,60.873358903328,0,0.223694,0.69962600664,0,0,0,132.6, -0.8, -1,0,0,1024,1024,1120,1024,0,0,15,0,132.7,0,0,97,4.154,4.154,4.159,0,0,0,2.204,88.52,60.873358903328,0,6,P-GPS,
3000,2024-03-30 02:26:16,-34.4415281271484,150.842428548808,0,,,60.873358903328,0.656168,0,0.76626314788,1.00770016348,13,4,12.472,60.873358903328,0,0.223694,0.76626314788,0,0,0,132.8, -0.7, -0.7,0,0,1024,1024,1120,1024,0,0,15,0,132.7,0,0,97,4.154,4.154,4.159,0,0,0,2.204,88.52,60.873358903328,0,6,P-GPS,
3100,2024-03-30 02:26:16,-34.4415279846367,150.842428673514,0,,,60.873358903328,0.656168,0,0.82952430476,1.07182090044,13,4,12.472,60.873358903328,0,0.223694,0.82952430476,0,0,0,133.1, -0.3, 0,0,0,1024,1024,1684,1024,0,0,100,0,132.7,0,0,97,4.154,4.154,4.159,0,0,0,2.204,88.52,60.873358903328,0,6,P-GPS,
3200,2024-03-30 02:26:16,-34.4415278323121,150.842428876624,0,,,60.873358903328,0.656168,0,0.91203414992,1.15442588996,13,4,12.472,60.873358903328,0,0.223694,0.91203414992,0,0,0,133, -0.2, -0.5,0,0,1024,1024,1684,1024,0,0,100,0,132.7,0,0,97,4.154,4.154,4.159,0,0,0,2.204,88.52,60.873358903328,0,6,P-GPS,
3300,2024-03-30 02:26:16,-34.4415276908003,150.842429040562,0,,,60.873358903328,0.656168,0,0.98342194748,1.22583337256,13,4,12.472,60.873358903328,0,0.223694,0.98342194748,0,0,0,133.1, -0.3, -0.7,0,0,1024,1024,1597,1024,0,0,87,0,132.7,0,0,97,4.154,4.154,4.159,0,0,0,2.204,88.52,60.873358903328,0,6,P-GPS,
3400,2024-03-30 02:26:17,-34.4415275421625,150.842429259439,0,,,60.873358903328,0.656168,0,1.06836617592,1.31114505508,12,4,12.472,60.873358903328,0,0.223694,1.06836617592,0,0,-0.223694,133.1, -0.7, -0.5,0,0,1024,1024,1684,1041,0,0,100,3,132.7,0,0,97,4.154,4.154,4.159,0,0,0,2.204,88.52,60.873358903328,0,6,P-GPS,
3500,2024-03-30 02:26:17,-34.4415274019893,150.842429439155,0,,,60.873358903328,0.656168,0,1.1427821888,1.38557419132,12,4,12.472,60.873358903328,0,0.223694,1.1427821888,0,0,-0.223694,132.9, -0.3, 0,0,0,1024,1024,1684,1041,0,0,100,3,132.7,0,0,97,4.154,4.154,4.159,0,0,0,2.204,88.52,60.873358903328,0,6,P-GPS,
3600,2024-03-30 02:26:17,-34.4415272490556,150.842429710558,0,,,60.873358903328,0.656168,0,1.24026250688,1.48447839396,12,4,12.472,60.873358903328,0,0.223694,1.24026250688,0,0,-0.447388,132.8, -0.1, 0.4,0,0,1024,1024,1684,1024,0,0,100,0,132.7,0,0,97,4.154,4.154,4.159,0,0,0,2.204,88.52,60.873358903328,0,6,P-GPS,
3700,2024-03-30 02:26:17,-34.4415270938779,150.842429965945,0.328084,,,61.201442903328,0.656168,0.223694,1.33499348104,1.57992787208,12,4,12.021,61.201442903328,0.328084,0.223694,1.33499348104,0,0.223694,-0.894776,132.7, -0.1, 0.8,0,0,1024,1024,1024,1024,0,0,0,0,132.7,0,0,97,4.154,4.154,4.159,0,0,0,2.204,88.52,61.201442903328,0.328084,6,P-GPS,
3800,2024-03-30 02:26:17,-34.4415269390519,150.842430228043,0.328084,,,61.201442903328,0.984252,0.223694,1.43121395656,1.6769357492,12,4,12.021,61.201442903328,0.328084,0.223694,1.43121395656,0,0.223694,-1.565858,132.6, 0, 1.2,0,0,1024,1024,1024,1024,0,0,0,0,132.7,0,0,97,4.154,4.154,4.159,0,0,0,2.204,88.52,61.201442903328,0.328084,6,P-GPS,
3900,2024-03-30 02:26:17,-34.4415267891602,150.842430408128,0.656168,,,61.529526903328,1.312336,0.223694,1.50812668868,1.7539206598,12,4,12.021,61.529526903328,0.656168,0.223694,1.50812668868,0,0.223694,-2.013246,132.6, 0.1, 2.2,0,0,1024,1024,1024,1024,0,0,0,0,132.7,0,0,97,4.154,4.154,4.159,0,0,0,2.204,88.52,61.529526903328,0.656168,6,P-GPS,
4000,2024-03-30 02:26:17,-34.4415266438997,150.842430582165,0.984252,,,61.857610903328,1.64042,0,1.58255910576,1.82842525536,12,4,12.021,61.857610903328,0.984252,0.223694,1.58255910576,0,0,-2.013246,132.5, 0, 2.7,0,0,1024,1024,1024,1024,0,0,0,0,132.7,0,0,97,4.154,4.154,4.159,0,0,0,2.204,88.52,61.857610903328,0.984252,6,P-GPS,
4100,2024-03-30 02:26:17,-34.4415265059705,150.842430706605,1.312336,,,62.185694903328,1.968504,0,1.64428482952,1.89115163532,12,4,12.021,62.185694903328,1.312336,0.223694,1.64428482952,0,0,-1.789552,132.6, -0.1, 2.6,0,0,1024,1024,1024,1024,0,0,0,0,132.7,0,0,97,4.154,4.154,4.159,0,0,0,2.204,88.52,62.185694903328,1.312336,6,P-GPS,
4200,2024-03-30 02:26:17,-34.4415264348564,150.842430857126,1.64042,,,62.513778903328,1.968504,0,1.69508535608,1.94334651888,12,4,12.021,62.513778903328,1.64042,0.223694,1.69508535608,0,0,-1.342164,132.5, 0.1, 2.2,0,0,1024,1024,1024,1024,0,0,0,0,132.7,0,0,97,4.154,4.154,4.159,0,0,0,2.204,88.52,62.513778903328,1.64042,6,P-GPS,
4300,2024-03-30 02:26:17,-34.4415264066647,150.842430988551,1.64042,,,62.513778903328,2.296588,0,1.73116475356,1.98420938108,12,4,12.021,62.513778903328,1.64042,0.223694,1.73116475356,0,0,-0.894776,132.6, 0.5, 1.8,0,0,1024,1024,1024,1024,0,0,0,0,132.7,0,0,97,4.154,4.154,4.159,0,0,0,2.204,88.52,62.513778903328,1.64042,6,P-GPS,
4400,2024-03-30 02:26:18,-34.4415263847524,150.842431190067,1.968504,,,62.841862903328,0,0,1.78176514888,2.04536751952,12,4,12.021,62.841862903328,1.968504,0.223694,1.78176514888,0,0,-0.447388,132.6, 0.7, 1.3,0,0,1024,1024,1024,1024,0,0,0,0,132.7,0,0,97,4.154,4.154,4.159,0,0,0,2.204,88.52,62.841862903328,1.968504,6,P-GPS,
4500,2024-03-30 02:26:18,-34.4415263129608,150.84243137473,1.968504,,,62.841862903328,6.233596,0,1.84092197492,2.10679468684,12,4,12.021,62.841862903328,1.968504,0.223694,1.84092197492,0,0,0,132.6, 0.7, 1,0,0,1024,1024,1024,1024,0,0,0,0,132.7,0,0,97,4.154,4.154,4.159,0,0,0,2.204,88.52,62.841862903328,1.968504,6,P-GPS,
4600,2024-03-30 02:26:18,-34.4415261993378,150.842431575695,1.968504,,,62.841862903328,6.233596,0,1.9138288014,2.18011161832,13,4,12.021,62.841862903328,1.968504,0.223694,1.9138288014,0,0,0,132.7, 0.3, 0.8,0,0,1024,1024,1024,1024,0,0,0,0,132.7,0,0,97,4.154,4.154,4.159,0,0,0,2.204,88.52,62.841862903328,1.968504,6,P-GPS,
4700,2024-03-30 02:26:18,-34.4415260389425,150.842431690155,1.968504,,,62.841862903328,6.233596,0,1.97809717616,2.24801188296,13,4,12.107,62.841862903328,1.968504,0.223694,1.97809717616,0,0,0,132.5, 0, 0.8,0,0,1024,1024,1024,1024,0,0,0,0,132.7,0,0,97,3.882,3.899,3.946,0,0,0,8.088,88.52,62.841862903328,1.968504,6,P-GPS,
4800,2024-03-30 02:26:18,-34.4415258693108,150.842431793406,1.968504,,,62.841862903328,6.233596,0,2.0423229,2.31726385368,13,4,12.107,62.841862903328,1.968504,0.223694,2.0423229,0,0,0,132.5, -0.3, 0.8,0,0,1024,1024,1024,1024,0,0,0,0,132.7,0,0,97,3.882,3.899,3.946,0,0,0,8.088,88.52,62.841862903328,1.968504,6,P-GPS,
4900,2024-03-30 02:26:18,-34.4415257207283,150.84243182934,1.64042,,,62.513778903328,6.233596,0,2.08675531612,2.372539446,13,4,12.107,62.841862903328,1.968504,0.223694,2.08675531612,0,0,0,132.4, -0.5, 1,0,0,1024,1024,1024,1024,0,0,0,0,132.7,0,0,97,3.882,3.899,3.946,0,0,0,8.088,88.52,62.513778903328,1.64042,6,P-GPS,
5000,2024-03-30 02:26:18,-34.4415255657688,150.842431872162,1.64042,,,62.513778903328,6.233596,0,2.13479993708,2.430528293,14,4,12.107,62.841862903328,1.968504,0.223694,2.13479993708,0,0,0,132.5, -0.7, 1,0,0,1024,1024,1024,1024,0,0,0,0,132.7,0,0,97,3.882,3.899,3.946,0,0,0,8.088,88.52,62.513778903328,1.64042,6,P-GPS,
5100,2024-03-30 02:26:18,-34.4415254202608,150.842431904671,1.64042,,,62.513778903328,5.905512,0,2.17869429544,2.48450795352,14,4,12.107,62.841862903328,1.968504,0.223694,2.17869429544,0,0,0,132.5, -0.8, 1.1,0,0,1024,1024,1024,1024,0,0,0,0,132.7,0,0,97,3.882,3.899,3.946,0,0,0,8.088,88.52,62.513778903328,1.64042,6,P-GPS,
5200,2024-03-30 02:26:18,-34.4415252920534,150.842431967455,1.64042,,,62.513778903328,5.905512,0,2.22500663288,2.5349574302,14,4,12.107,62.841862903328,1.968504,0.223694,2.22500663288,0,0,0,132.6, -0.9, 1.1,0,0,1024,1024,1024,1024,0,0,0,0,132.7,0,0,97,3.882,3.899,3.946,0,0,0,8.088,88.52,62.513778903328,1.64042,6,P-GPS,
5300,2024-03-30 02:26:18,-34.4415251913896,150.842432040867,1.64042,,,62.513778903328,5.905512,0,2.2666011224,2.57781504312,14,4,12.107,62.841862903328,1.968504,0.223694,2.2666011224,0,0,0,132.5, -1, 1.3,0,0,1024,1024,1024,1024,0,0,0,0,132.7,0,0,97,3.882,3.899,3.946,0,0,0,8.088,88.52,62.513778903328,1.64042,6,P-GPS,
5400,2024-03-30 02:26:19,-34.4415251251998,150.842432165691,1.64042,,,62.513778903328,5.905512,0,2.31022973272,2.62246727552,14,4,12.107,62.841862903328,1.968504,0.223694,2.31022973272,0,0,0,132.6, -1, 1.5,0,0,1024,1024,1024,1024,0,0,0,0,132.7,0,0,97,3.882,3.899,3.946,0,0,0,8.088,88.52,62.513778903328,1.64042,6,P-GPS,
5500,2024-03-30 02:26:19,-34.4415250862084,150.842432290845,1.64042,,,62.513778903328,5.905512,0,2.34699482576,2.66272318232,14,4,12.107,62.841862903328,1.968504,0.223694,2.34699482576,0,0,0,132.6, -1, 1.6,0,0,1024,1024,1024,1024,0,0,0,0,132.7,0,0,97,3.882,3.899,3.946,0,0,0,8.088,88.52,62.513778903328,1.64042,6,P-GPS,
5600,2024-03-30 02:26:19,-34.4415250981383,150.842432444989,1.64042,,,62.513778903328,5.905512,0,2.37727697896,2.70930782948,13,4,12.107,62.841862903328,1.968504,0.223694,2.37727697896,0,0,0,132.7, -0.9, 1.6,0,0,1024,1024,1024,1024,0,0,0,0,132.7,0,0,97,3.882,3.899,3.946,0,0,0,8.088,88.52,62.513778903328,1.64042,6,P-GPS,
5700,2024-03-30 02:26:19,-34.441525130121,150.842432558295,1.64042,,,62.513778903328,5.905512,0,2.3940945648,2.7453412952,13,4,11.87,62.841862903328,1.968504,0.223694,2.3940945648,0,0,0,132.5, -0.8, 1.4,0,0,1024,1024,1024,1024,0,0,0,0,132.7,0,0,97,3.92,3.921,3.948,0,0,0,8.296,88.52,62.513778903328,1.64042,6,P-GPS,
5800,2024-03-30 02:26:19,-34.441525260504,150.842432734043,1.64042,,,62.513778903328,5.905512,0,2.40149613984,2.8164699064,13,4,11.87,62.841862903328,1.968504,0.223694,2.40149613984,0,0,0,132.6, -0.6, 1.1,0,0,1024,1024,1024,1024,0,0,0,0,132.7,0,0,97,3.92,3.921,3.948,0,0,0,8.296,88.52,62.513778903328,1.64042,6,P-GPS,
5900,2024-03-30 02:26:19,-34.4415254067676,150.842432896217,1.64042,,,62.513778903328,5.905512,0,2.4041339352,2.88878290084,13,4,11.87,62.841862903328,1.968504,0.223694,2.4041339352,0,0,0,132.5, -0.6, 0.9,0,0,1024,1024,1024,1024,0,0,0,0,132.7,0,0,97,3.92,3.921,3.948,0,0,0,8.296,88.52,62.513778903328,1.64042,6,P-GPS,
6000,2024-03-30 02:26:19,-34.4415255766273,150.842433106235,1.64042,,,62.513778903328,5.905512,0,2.41510178332,2.97729012152,13,4,11.87,62.841862903328,1.968504,0.223694,2.41510178332,0,0,0,132.7, -0.8, 0.8,0,0,1024,1024,1024,1024,0,0,0,0,132.7,0,0,97,3.92,3.921,3.948,0,0,0,8.296,88.52,62.513778903328,1.64042,6,P-GPS,
6100,2024-03-30 02:26:19,-34.4415256818215,150.842433282978,1.64042,,,62.513778903328,6.233596,0,2.43484915928,3.04287411312,13,4,11.87,62.841862903328,1.968504,0.223694,2.43484915928,0,0,0,132.6, -0.8, 0.9,0,0,1024,1024,1024,1024,0,0,0,0,132.7,0,0,97,3.92,3.921,3.948,0,0,0,8.296,88.52,62.513778903328,1.64042,6,P-GPS,
6200,2024-03-30 02:26:19,-34.4415257876671,150.842433489788,1.64042,,,62.513778903328,6.233596,0,2.4635171392,3.11611230444,13,4,11.87,62.841862903328,1.968504,0.223694,2.4635171392,0,0,0,132.7, -0.7, 1.2,0,0,1024,1024,1024,1024,0,0,0,0,132.7,0,0,97,3.92,3.921,3.948,0,0,0,8.296,88.52,62.513778903328,1.64042,6,P-GPS,
6300,2024-03-30 02:26:19,-34.4415258565698,150.84243365024,1.64042,,,62.513778903328,6.233596,0,2.48966215316,3.17054472088,13,4,11.87,62.841862903328,1.968504,0.223694,2.48966215316,0,0,0,132.6, -0.5, 1.4,0,0,1024,1024,1024,1024,0,0,0,0,132.7,0,0,97,3.92,3.921,3.948,0,0,0,8.296,88.52,62.513778903328,1.64042,6,P-GPS,
6400,2024-03-30 02:26:20,-34.4415258815274,150.842433814432,1.64042,,,62.513778903328,6.233596,0,2.52622711496,3.22078094296,13,4,11.87,62.841862903328,1.968504,0.223694,2.52622711496,0,0,0,132.7, -0.6, 1.5,0,0,1024,1024,1024,1024,0,0,0,0,132.7,0,0,97,3.92,3.921,3.948,0,0,0,8.296,88.52,62.513778903328,1.64042,6,P-GPS,
6500,2024-03-30 02:26:20,-34.4415258699654,150.842433940074,1.64042,,,62.513778903328,6.233596,0,2.56044627616,3.25881900192,13,4,11.87,62.841862903328,1.968504,0.223694,2.56044627616,0,0,0,132.6, -0.6, 1.5,0,0,1024,1024,1024,1024,0,0,0,0,132.7,0,0,97,3.92,3.921,3.948,0,0,0,8.296,88.52,62.513778903328,1.64042,6,P-GPS,
6600,2024-03-30 02:26:20,-34.4415258380447,150.842434064244,1.64042,,,62.513778903328,6.233596,0,2.5983104506,3.2979659848,14,4,11.87,62.841862903328,1.968504,0.223694,2.5983104506,0,0,0,132.7, -0.6, 1.6,0,0,1024,1024,1024,1024,0,0,0,0,132.7,0,0,97,3.92,3.921,3.948,0,0,0,8.296,88.52,62.513778903328,1.64042,6,P-GPS,
6700,2024-03-30 02:26:20,-34.4415258361557,150.842434162773,1.64042,,,62.513778903328,6.233596,0,2.62389772176,3.3276247784,14,4,11.87,62.841862903328,1.968504,0.223694,2.62389772176,0,0,0,132.5, -0.6, 1.6,0,0,1024,1024,1024,1024,0,0,0,0,132.7,0,0,97,3.92,3.921,3.948,0,0,0,8.296,88.52,62.513778903328,1.64042,6,P-GPS,
6800,2024-03-30 02:26:20,-34.4415258349734,150.842434256015,1.64042,,,62.513778903328,6.233596,0,2.64807423172,3.3556759604,14,4,11.806,62.841862903328,1.968504,0.223694,2.64807423172,0,0,0,132.6, -0.7, 1.6,0,0,1024,1024,1024,1024,0,0,0,0,132.7,0,0,97,3.92,3.921,3.948,0,0,0,8.286,88.52,62.513778903328,1.64042,6,P-GPS,
6900,2024-03-30 02:26:20,-34.44152586906,150.842434333548,1.64042,,,62.513778903328,6.233596,0,2.66167659436,3.3821195308,14,4,11.806,62.841862903328,1.968504,0.223694,2.66167659436,0,0,0,132.6, -0.8, 1.5,0,0,1024,1024,1024,1024,0,0,0,0,132.7,0,0,97,3.92,3.921,3.948,0,0,0,8.286,88.52,62.513778903328,1.64042,6,P-GPS,
7000,2024-03-30 02:26:20,-34.4415258901516,150.842434411964,1.64042,,,62.513778903328,6.233596,0,2.67809063688,3.4069226812,14,4,11.806,62.841862903328,1.968504,0.223694,2.67809063688,0,0,0,132.7, -0.8, 1.4,0,0,1024,1024,1024,1024,0,0,0,0,132.7,0,0,97,3.92,3.921,3.948,0,0,0,8.286,88.52,62.513778903328,1.64042,6,P-GPS,
7100,2024-03-30 02:26:20,-34.4415259175453,150.842434485427,1.64042,,,62.513778903328,5.905512,0,2.69219496804,3.4311680888,14,4,11.806,62.841862903328,1.968504,0.223694,2.69219496804,0,0,0,132.7, -0.8, 1.3,0,0,1024,1024,1024,1024,0,0,0,0,132.7,0,0,97,3.92,3.921,3.948,0,0,0,8.286,88.52,62.513778903328,1.64042,6,P-GPS,
7200,2024-03-30 02:26:20,-34.4415259252674,150.842434552209,1.64042,,,62.513778903328,6.233596,0,2.70823827564,3.4514764884,14,4,11.806,62.841862903328,1.968504,0.223694,2.70823827564,0,0,0,132.8, -0.8, 1.2,0,0,1024,1024,1024,1024,0,0,0,0,132.7,0,0,97,3.92,3.921,3.948,0,0,0,8.286,88.52,62.513778903328,1.64042,6,P-GPS,
7300,2024-03-30 02:26:21,-34.441525941275,150.842434604097,1.64042,,,62.513778903328,6.233596,0,2.7189469374,3.4681431556,14,4,11.806,62.841862903328,1.968504,0.223694,2.7189469374,0,0,0,132.7, -0.9, 1.3,0,0,1024,1024,1024,1024,0,0,0,0,132.7,0,0,97,3.92,3.921,3.948,0,0,0,8.286,88.52,62.513778903328,1.64042,6,P-GPS,
7400,2024-03-30 02:26:21,-34.4415259508079,150.842434668037,1.64042,,,62.513778903328,6.233596,0,2.73403552056,3.487696962,14,4,11.806,62.841862903328,1.968504,0.223694,2.73403552056,0,0,0,132.8, -0.9, 1.3,0,0,1024,1024,1024,1024,0,0,0,0,132.7,0,0,97,3.92,3.921,3.948,0,0,0,8.286,88.52,62.513778903328,1.64042,6,P-GPS,
7500,2024-03-30 02:26:21,-34.4415259874121,150.842434742272,1.64042,,,62.513778903328,6.233596,0,2.74714247636,3.5137140232,14,4,11.806,62.841862903328,1.968504,0.223694,2.74714247636,0,0,0,132.7, -0.8, 1.3,0,0,1024,1024,1024,1024,0,0,0,0,132.7,0,0,97,3.92,3.921,3.948,0,0,0,8.286,88.52,62.513778903328,1.64042,6,P-GPS,
7600,2024-03-30 02:26:21,-34.4415260204858,150.84243483467,1.64042,,,62.513778903328,6.233596,0,2.76585966856,3.5440289848,14,4,11.806,62.841862903328,1.968504,0.223694,2.76585966856,0,0,0,132.8, -0.7, 1.5,0,0,1024,1024,1024,1024,0,0,0,0,132.7,0,0,97,3.92,3.921,3.948,0,0,0,8.286,88.52,62.513778903328,1.64042,6,P-GPS,
7700,2024-03-30 02:26:21,-34.4415260716906,150.842434920188,1.64042,,,62.513778903328,6.233596,0,2.77988197872,3.5758203244,14,4,11.806,62.841862903328,1.968504,0.223694,2.77988197872,0,0,0,132.8, -0.8, 1.7,0,0,1024,1024,1024,1024,0,0,0,0,132.7,0,0,97,3.92,3.921,3.948,0,0,0,8.286,88.52,62.513778903328,1.64042,6,P-GPS,
7800,2024-03-30 02:26:21,-34.4415261412935,150.84243499849,1.64042,,,62.513778903328,6.233596,0,2.78921924936,3.6104659948,14,4,11.827,62.841862903328,1.968504,0.223694,2.78921924936,0,0,0,132.8, -0.8, 1.6,0,0,1024,1024,1024,1024,0,0,0,0,132.7,0,0,97,3.907,3.907,3.937,0,0,0,8.286,88.52,62.513778903328,1.64042,6,P-GPS,
7900,2024-03-30 02:26:21,-34.4415262379319,150.842435050131,1.64042,,,62.513778903328,6.233596,0,2.78740822568,3.6489830564,14,4,11.827,62.841862903328,1.968504,0.223694,2.78921924936,0,0,0,132.7, -0.8, 1.5,0,0,1024,1024,1024,1024,0,0,0,0,132.7,0,0,97,3.907,3.907,3.937,0,0,0,8.286,88.52,62.513778903328,1.64042,6,P-GPS,
8000,2024-03-30 02:26:21,-34.4415263366319,150.842435096217,1.64042,,,62.513778903328,6.233596,0,2.78429470852,3.6875985432,14,4,11.827,62.841862903328,1.968504,0.223694,2.78921924936,0,0,0,132.7, -0.9, 1.5,0,0,1024,1024,1024,1024,0,0,0,0,132.7,0,0,97,3.907,3.907,3.937,0,0,0,8.286,88.52,62.513778903328,1.64042,6,P-GPS,
8100,2024-03-30 02:26:21,-34.4415264313975,150.842435129518,1.64042,,,62.513778903328,6.233596,0,2.77880914404,3.723589358,14,4,11.827,62.841862903328,1.968504,0.223694,2.78921924936,0,0,0,132.5, -0.8, 1.3,0,0,1024,1024,1024,1024,0,0,0,0,132.7,0,0,97,3.907,3.907,3.937,0,0,0,8.286,88.52,62.513778903328,1.64042,6,P-GPS,
8200,2024-03-30 02:26:21,-34.4415265188482,150.842435163876,1.64042,,,62.513778903328,6.233596,0,2.77515100744,3.7571195428,13,4,11.827,62.841862903328,1.968504,0.223694,2.78921924936,0,0,0,132.6, -0.8, 1.3,0,0,1024,1024,1024,1024,0,0,0,0,132.7,0,0,97,3.907,3.907,3.937,0,0,0,8.286,88.52,62.513778903328,1.64042,6,P-GPS,
8300,2024-03-30 02:26:21,-34.4415266026447,150.842435195567,1.64042,,,62.513778903328,6.233596,0,2.77167987872,3.7891405412,13,4,11.827,62.841862903328,1.968504,0.223694,2.78921924936,0,0,0,132.6, -0.6, 1.3,0,0,1024,1024,1024,1024,0,0,0,0,132.7,0,0,97,3.907,3.907,3.937,0,0,0,8.286,88.52,62.513778903328,1.64042,6,P-GPS,
8400,2024-03-30 02:26:22,-34.4415266708993,150.84243521459,1.64042,,,62.513778903328,6.233596,0,2.7672409022,3.8146982848,13,4,11.827,62.841862903328,1.968504,0.223694,2.78921924936,0,0,0,132.8, -0.7, 1.4,0,0,1024,1024,1024,1024,0,0,0,0,132.7,0,0,97,3.907,3.907,3.937,0,0,0,8.286,88.52,62.513778903328,1.64042,6,P-GPS,
8500,2024-03-30 02:26:22,-34.4415267432283,150.842435215865,1.64042,,,62.513778903328,6.233596,0,2.75752305412,3.8410762384,13,4,11.827,62.841862903328,1.968504,0.223694,2.78921924936,0,0,0,132.7, -0.8, 1.4,0,0,1024,1024,1024,1024,0,0,0,0,132.7,0,0,97,3.907,3.907,3.937,0,0,0,8.286,88.52,62.513778903328,1.64042,6,P-GPS,
8600,2024-03-30 02:26:22,-34.4415267984944,150.842435202984,1.64042,,,62.513778903328,6.233596,0,2.7463747598,3.8616142968,12,4,11.827,62.841862903328,1.968504,0.223694,2.78921924936,0,0,0,132.7, -0.8, 1.3,0,0,1024,1024,1024,1024,0,0,0,0,132.7,0,0,97,3.907,3.907,3.937,0,0,0,8.286,88.52,62.513778903328,1.64042,6,P-GPS,
8700,2024-03-30 02:26:22,-34.4415268702274,150.84243518653,1.64042,,,62.513778903328,6.233596,0,2.73213919504,3.8882547176,12,4,11.827,62.841862903328,1.968504,0.223694,2.78921924936,0,0,0,132.5, -0.8, 1.1,0,0,1024,1024,1024,1024,0,0,0,0,132.7,0,0,97,3.907,3.907,3.937,0,0,0,8.286,88.52,62.513778903328,1.64042,6,P-GPS,
8800,2024-03-30 02:26:22,-34.4415269218197,150.842435164889,1.64042,,,62.513778903328,6.233596,0,2.71926189804,3.9081694164,12,4,11.72,62.841862903328,1.968504,0.223694,2.78921924936,0,0,0,132.6, -0.8, 1.1,0,0,1024,1024,1024,1024,0,0,0,0,132.7,0,0,97,3.9,3.898,3.927,0,0,0,8.342,88.7,62.513778903328,1.64042,6,P-GPS,
8900,2024-03-30 02:26:22,-34.4415269867523,150.842435148881,1.64042,,,62.513778903328,6.233596,0,2.70634195012,3.9323492072,12,4,11.72,62.841862903328,1.968504,0.223694,2.78921924936,0,0,0,132.6, -0.8, 1.2,0,0,1024,1024,1024,1024,0,0,0,0,132.7,0,0,97,3.9,3.898,3.927,0,0,0,8.342,88.7,62.513778903328,1.64042,6,P-GPS,
9000,2024-03-30 02:26:22,-34.4415270306259,150.842435132458,1.64042,,,62.513778903328,6.233596,0,2.69611557184,3.9491142996,12,4,11.72,62.841862903328,1.968504,0.223694,2.78921924936,0,0,0,132.7, -0.8, 1.2,0,0,1024,1024,1024,1024,0,0,0,0,132.7,0,0,97,3.9,3.898,3.927,0,0,0,8.342,88.7,62.513778903328,1.64042,6,P-GPS,
9100,2024-03-30 02:26:22,-34.4415270920768,150.842435119307,1.64042,,,62.513778903328,6.233596,0,2.68469168696,3.9718833292,12,4,11.72,62.841862903328,1.968504,0.223694,2.78921924936,0,0,0,132.6, -0.7, 1.2,0,0,1024,1024,1024,1024,0,0,0,0,132.7,0,0,97,3.9,3.898,3.927,0,0,0,8.342,88.7,62.513778903328,1.64042,6,P-GPS,
9200,2024-03-30 02:26:22,-34.4415271341688,150.842435121574,1.64042,,,62.513778903328,6.233596,0,2.68014444272,3.9872376604,12,4,11.72,62.841862903328,1.968504,0.223694,2.78921924936,0,0,0,132.7, -0.5, 1.1,0,0,1024,1024,1024,1024,0,0,0,0,132.7,0,0,97,3.9,3.898,3.927,0,0,0,8.342,88.7,62.513778903328,1.64042,6,P-GPS,
9300,2024-03-30 02:26:22,-34.4415271885361,150.842435136709,1.64042,,,62.513778903328,6.233596,0,2.67786097808,4.0076116768,12,4,11.72,62.841862903328,1.968504,0.223694,2.78921924936,0,0,0,132.5, -0.4, 1,0,0,1024,1024,1024,1024,0,0,0,0,132.7,0,0,97,3.9,3.898,3.927,0,0,0,8.342,88.7,62.513778903328,1.64042,6,P-GPS,
9400,2024-03-30 02:26:23,-34.441527218164,150.842435171555,1.64042,,,62.513778903328,6.233596,0,2.6842520544,4.0226707324,13,4,11.72,62.841862903328,1.968504,0.223694,2.78921924936,0,0,0,132.6, -0.4, 1,0,0,1024,1024,1024,1024,0,0,0,0,132.7,0,0,97,3.9,3.898,3.927,0,0,0,8.342,88.7,62.513778903328,1.64042,6,P-GPS,
9500,2024-03-30 02:26:23,-34.4415272634445,150.842435204116,1.64042,,,62.513778903328,6.233596,0,2.68824811752,4.0418636464,13,4,11.72,62.841862903328,1.968504,0.223694,2.78921924936,0,0,0,132.6, -0.5, 1,0,0,1024,1024,1024,1024,0,0,0,0,132.7,0,0,97,3.9,3.898,3.927,0,0,0,8.342,88.7,62.513778903328,1.64042,6,P-GPS,
9600,2024-03-30 02:26:23,-34.4415272885421,150.842435243443,1.64042,,,62.513778903328,6.233596,0,2.69660113616,4.0568242768,13,4,11.72,62.841862903328,1.968504,0.223694,2.78921924936,0,0,0,132.7, -0.6, 1.1,0,0,1024,1024,1024,1024,0,0,0,0,132.7,0,0,97,3.9,3.898,3.927,0,0,0,8.342,88.7,62.513778903328,1.64042,6,P-GPS,
9700,2024-03-30 02:26:23,-34.4415273331419,150.842435260424,1.64042,,,62.513778903328,6.233596,0,2.6964239708,4.0738846448,13,4,11.72,62.841862903328,1.968504,0.223694,2.78921924936,0,0,0,132.7, -0.7, 1.2,0,0,1024,1024,1024,1024,0,0,0,0,132.7,0,0,97,3.9,3.898,3.927,0,0,0,8.342,88.7,62.513778903328,1.64042,6,P-GPS,
9800,2024-03-30 02:26:23,-34.4415273454366,150.842435298592,1.64042,,,62.513778903328,6.233596,0,2.70599418108,4.0862206032,13,4,12.064,62.841862903328,1.968504,0.223694,2.78921924936,0,0,0,132.8, -0.7, 1.2,0,0,1024,1024,1024,1024,0,0,0,0,132.7,0,0,97,3.893,3.892,3.922,0,0,0,8.274,88.7,62.513778903328,1.64042,6,P-GPS,
9900,2024-03-30 02:26:23,-34.4415273653265,150.842435337713,1.64042,,,62.513778903328,6.233596,0,2.71502961444,4.1000329396,13,4,12.064,62.841862903328,1.968504,0.223694,2.78921924936,0,0,0,132.8, -0.6, 1.1,0,0,1024,1024,1024,1024,0,0,0,0,132.7,0,0,97,3.893,3.892,3.922,0,0,0,8.274,88.7,62.513778903328,1.64042,6,P-GPS,
10000,2024-03-30 02:26:23,-34.4415273660267,150.842435401407,1.64042,,,62.513778903328,6.233596,0,2.73324155728,4.1191930452,13,4,12.064,62.841862903328,1.968504,0.223694,2.78921924936,0,0,0,132.8, -0.5, 1.3,0,0,1024,1024,1024,1024,0,0,0,0,132.7,0,0,97,3.893,3.892,3.922,0,0,0,8.274,88.7,62.513778903328,1.64042,6,P-GPS,
10100,2024-03-30 02:26:23,-34.4415273971202,150.842435457198,1.64042,,,62.513778903328,6.233596,0,2.7459318464,4.1394686364,13,4,12.064,62.841862903328,1.968504,0.223694,2.78921924936,0,0,0,132.8, -0.4, 1.3,0,0,1024,1024,1024,1024,0,0,0,0,132.7,0,0,97,3.893,3.892,3.922,0,0,0,8.274,88.7,62.513778903328,1.64042,6,P-GPS,
10200,2024-03-30 02:26:23,-34.4415274123592,150.842435534899,1.64042,,,62.513778903328,6.233596,0,2.76669300192,4.1634843852,13,4,12.064,62.841862903328,1.968504,0.223694,2.78921924936,0,0,0,132.7, -0.4, 1.5,0,0,1024,1024,1024,1024,0,0,0,0,132.7,0,0,97,3.893,3.892,3.922,0,0,0,8.274,88.7,62.513778903328,1.64042,6,P-GPS,
10300,2024-03-30 02:26:23,-34.4415274526339,150.842435595264,1.64042,,,62.513778903328,6.233596,0,2.7799213488,4.1868767744,13,4,12.064,62.841862903328,1.968504,0.223694,2.78921924936,0,0,0,132.7, -0.4, 1.5,0,0,1024,1024,1024,1024,0,0,0,0,132.7,0,0,97,3.893,3.892,3.922,0,0,0,8.274,88.7,62.513778903328,1.64042,6,P-GPS,
10400,2024-03-30 02:26:24,-34.441527485802,150.842435666468,1.64042,,,62.513778903328,6.233596,0,2.7971293546,4.2114830744,13,4,12.064,62.841862903328,1.968504,0.223694,2.7971293546,0,0,0,132.6, -0.3, 1.8,0,0,1024,1024,1024,1024,0,0,0,0,132.7,0,0,97,3.893,3.892,3.922,0,0,0,8.274,88.7,62.513778903328,1.64042,6,P-GPS,
10500,2024-03-30 02:26:24,-34.4415275356975,150.842435717774,1.64042,,,62.513778903328,6.233596,0,2.80704077224,4.2353347812,13,4,12.064,62.841862903328,1.968504,0.223694,2.80704077224,0,0,0,132.6, -0.3, 1.9,0,0,1024,1024,1024,1024,0,0,0,0,132.7,0,0,97,3.893,3.892,3.922,0,0,0,8.274,88.7,62.513778903328,1.64042,6,P-GPS,
10600,2024-03-30 02:26:24,-34.4415275654655,150.842435773261,1.64042,,,62.513778903328,6.233596,0,2.82025599576,4.25524948,14,4,12.064,62.841862903328,1.968504,0.223694,2.82025599576,0,0,0,132.7, -0.3, 1.8,0,0,1024,1024,1024,1024,0,0,0,0,132.7,0,0,97,3.893,3.892,3.922,0,0,0,8.274,88.7,62.513778903328,1.64042,6,P-GPS,
10700,2024-03-30 02:26:24,-34.4415276006952,150.842435807842,1.64042,,,62.513778903328,6.233596,0,2.82695875188,4.2717849136,14,4,12.064,62.841862903328,1.968504,0.223694,2.82695875188,0,0,0,132.7, -0.3, 1.7,0,0,1024,1024,1024,1024,0,0,0,0,132.7,0,0,97,3.893,3.892,3.922,0,0,0,8.274,88.7,62.513778903328,1.64042,6,P-GPS,
10800,2024-03-30 02:26:24,-34.4415276106646,150.84243583397,1.64042,,,62.513778903328,6.233596,0,2.83362213792,4.2804463312,14,4,11.978,62.841862903328,1.968504,0.223694,2.83362213792,0,0,0,132.6, -0.4, 1.6,0,0,1024,1024,1024,1024,0,0,0,0,132.7,0,0,97,3.893,3.892,3.922,0,0,0,8.274,88.7,62.513778903328,1.64042,6,P-GPS,
10900,2024-03-30 02:26:24,-34.4415276345995,150.842435831706,1.64042,,,62.513778903328,6.233596,0,2.8307415604,4.289206174,14,4,11.978,62.841862903328,1.968504,0.223694,2.83362213792,0,0,0,132.6, -0.4, 1.3,0,0,1024,1024,1024,1024,0,0,0,0,132.7,0,0,97,3.893,3.892,3.922,0,0,0,8.274,88.7,62.513778903328,1.64042,6,P-GPS,
11000,2024-03-30 02:26:24,-34.441527627392,150.842435840201,1.64042,,,62.513778903328,6.233596,0,2.83388132428,4.2928807148,14,4,11.978,62.841862903328,1.968504,0.223694,2.83388132428,0,0,0,132.5, -0.4, 1.2,0,0,1024,1024,1024,1024,0,0,0,0,132.7,0,0,97,3.893,3.892,3.922,0,0,0,8.274,88.7,62.513778903328,1.64042,6,P-GPS,
11100,2024-03-30 02:26:24,-34.4415276339481,150.842435854785,1.64042,,,62.513778903328,6.233596,0,2.83752305668,4.2978675916,14,4,11.978,62.841862903328,1.968504,0.223694,2.83752305668,0,0,0,132.6, -0.4, 1.1,0,0,1024,1024,1024,842,0,0,0,-28,132.6,0,0,97,3.893,3.892,3.922,0,0,0,8.274,88.7,62.513778903328,1.64042,6,P-GPS,
11200,2024-03-30 02:26:24,-34.4415276068215,150.84243587144,1.64042,,,62.513778903328,6.233596,0,2.8448819808,4.3089568308,14,4,11.978,62.841862903328,1.968504,0.223694,2.8448819808,0,0,0,132.6, -0.4, 1.2,0,0,1024,1024,1024,1024,0,0,0,0,132.1,0,0,97,3.893,3.892,3.922,0,0,0,8.274,88.7,62.513778903328,1.64042,6,P-GPS,
11300,2024-03-30 02:26:24,-34.4415275979204,150.842435872712,1.64042,,,62.513778903328,6.233596,0,2.84608276824,4.3122376708,14,4,11.978,62.841862903328,1.968504,0.223694,2.84608276824,0,0,0,132.6, -0.5, 1.2,0,0,1024,1024,1024,1024,0,0,0,0,132,0,0,97,3.893,3.892,3.922,0,0,0,8.274,88.7,62.513778903328,1.64042,6,P-GPS,
11400,2024-03-30 02:26:25,-34.4415275450806,150.842435877083,1.64042,,,62.513778903328,6.233596,0,2.85235245348,4.3315618184,14,4,11.978,62.841862903328,1.968504,0.223694,2.85235245348,0,0,0,132.3, -0.6, 1.3,0,0,1024,1024,1024,1024,0,0,0,0,132,0,0,97,3.893,3.892,3.922,0,0,0,8.274,88.7,62.513778903328,1.64042,6,P-GPS,
11500,2024-03-30 02:26:25,-34.4415275047734,150.842435871629,1.64042,,,62.513778903328,6.233596,0,2.85466544568,4.3463584068,14,4,11.978,62.841862903328,1.968504,0.223694,2.85466544568,0,0,0,132, -0.4, 1.2,0,0,1024,1024,1024,1024,0,0,0,0,132,0,0,97,3.893,3.892,3.922,0,0,0,8.274,88.7,62.513778903328,1.64042,6,P-GPS,
11600,2024-03-30 02:26:25,-34.4415274389452,150.842435870819,1.64042,,,62.513778903328,6.233596,0,2.86094825428,4.3703741556,14,4,11.978,62.841862903328,1.968504,0.223694,2.86094825428,0,0,0,132, -0.5, 0.8,0,0,1024,1024,1024,1024,0,0,0,0,132,0,0,97,3.893,3.892,3.922,0,0,0,8.274,88.7,62.513778903328,1.64042,6,P-GPS,
11700,2024-03-30 02:26:25,-34.4415274070798,150.842435868928,1.64042,,,62.513778903328,6.233596,0,2.86362213888,4.3820211376,14,4,11.978,62.841862903328,1.968504,0.223694,2.86362213888,0,0,0,131.9, -0.8, 0.8,0,0,1024,1024,1024,524,0,0,0,-76,131.9,0,0,97,3.893,3.892,3.922,0,0,0,8.274,88.7,62.513778903328,1.64042,6,P-GPS,
11800,2024-03-30 02:26:25,-34.4415273193457,150.842435882822,1.64042,,,62.513778903328,6.233596,0,2.87671925216,4.4143046032,14,4,11.698,62.841862903328,1.968504,0.223694,2.87671925216,0,0,0,132, -0.5, 1,0,0,1024,1024,1024,615,0,0,0,-62,128.8,0,0,97,3.888,3.886,3.915,0,0,0,8.232,88.7,62.513778903328,1.64042,6,P-GPS,
11900,2024-03-30 02:26:25,-34.4415272265342,150.842435900612,1.64042,,,62.513778903328,6.233596,0,2.89179143112,4.4485893812,14,4,11.698,62.841862903328,1.968504,0.223694,2.89179143112,0,0,0,131.6, -0.4, 1.5,0,0,1024,1024,1024,615,0,0,0,-62,124.5,0,0,97,3.888,3.886,3.915,0,0,0,8.232,88.7,62.513778903328,1.64042,6,P-GPS,
12000,2024-03-30 02:26:25,-34.4415270955193,150.842435926446,1.64042,,,62.513778903328,6.233596,0,2.91382555256,4.4970145796,14,4,11.698,62.841862903328,1.968504,0.223694,2.91382555256,0,0,0,129.4, -0.4, 2,0,0,1024,1024,1024,684,0,0,0,-52,121.2,0,0,97,3.888,3.886,3.915,0,0,0,8.232,88.7,62.513778903328,1.64042,6,P-GPS,
12100,2024-03-30 02:26:25,-34.4415270025352,150.842435942639,1.64042,,,62.513778903328,6.233596,0,2.92923893888,4.5312993576,14,4,11.698,62.841862903328,1.968504,0.223694,2.92923893888,0,0,0,125.9, -0.3, 2.2,0,0,1024,1024,1024,684,0,0,0,-52,118.9,0,0,97,3.888,3.886,3.915,0,0,0,8.232,88.7,62.513778903328,1.64042,6,P-GPS,
12200,2024-03-30 02:26:25,-34.4415268871893,150.842435950432,1.64042,,,62.513778903328,6.233596,0,2.94531833572,4.5734253432,14,4,11.698,62.841862903328,1.968504,0.223694,2.94531833572,0,0,0,122.7, 0, 2,0,0,1024,1024,1024,1024,0,0,0,0,117.7,0,0,97,3.888,3.886,3.915,0,0,0,8.232,88.7,62.513778903328,1.64042,6,P-GPS,
12300,2024-03-30 02:26:26,-34.4415268026828,150.842435937658,1.64042,,,62.513778903328,6.233596,0,2.95220153804,4.604494898,14,4,11.698,62.841862903328,1.968504,0.223694,2.95220153804,0,0,0,120.3, -0.1, 2.1,0,0,1024,1024,1024,1024,0,0,0,0,117.7,0,0,97,3.888,3.886,3.915,0,0,0,8.232,88.7,62.513778903328,1.64042,6,P-GPS,
12400,2024-03-30 02:26:26,-34.4415266788559,150.842435898139,1.64042,,,62.513778903328,6.233596,0,2.95701124948,4.6512140596,14,4,11.698,62.841862903328,1.968504,0.223694,2.95701124948,0,0,0,118.8, -0.3, 2.1,0,0,1024,1024,1024,1024,0,0,0,0,117.7,0,0,97,3.888,3.886,3.915,0,0,0,8.232,88.7,62.513778903328,1.64042,6,P-GPS,
12500,2024-03-30 02:26:26,-34.4415265672391,150.842435833664,1.64042,,,62.513778903328,6.233596,0,2.95391741736,4.6963256096,14,4,11.698,62.841862903328,1.968504,0.223694,2.95701124948,0,0,0,118.1, -0.5, 2.1,0,0,1024,1024,1024,1024,0,0,0,0,117.7,0,0,97,3.888,3.886,3.915,0,0,0,8.232,88.7,62.513778903328,1.64042,6,P-GPS,
12600,2024-03-30 02:26:26,-34.4415264276065,150.84243577191,1.64042,,,62.513778903328,6.233596,0,2.95624681376,4.7505578948,14,4,11.698,62.841862903328,1.968504,0.223694,2.95701124948,0,0,0,118, -0.8, 1.9,0,0,1024,1024,1024,1559,0,0,0,81,118.2,0,0,97,3.888,3.886,3.915,0,0,0,8.232,88.7,62.513778903328,1.64042,6,P-GPS,
12700,2024-03-30 02:26:26,-34.4415263196928,150.842435721038,1.64042,,,62.513778903328,6.233596,0,2.95786098704,4.792815114,14,4,11.698,62.841862903328,1.968504,0.223694,2.95786098704,0,0,0,117.8, -1, 1.8,0,0,1024,1024,1024,1684,0,0,0,100,124.9,0,0,97,3.888,3.886,3.915,0,0,0,8.232,88.7,62.513778903328,1.64042,6,P-GPS,
12800,2024-03-30 02:26:26,-34.4415261850661,150.842435673563,1.64042,,,62.513778903328,6.233596,0,2.96508539672,4.8439634096,14,4,11.741,62.841862903328,1.968504,0.223694,2.96508539672,0,0,0,119.3, -1, 1.6,0,0,1024,1024,1024,1684,0,0,0,100,133.7,0,0,97,3.881,3.88,3.908,0,0,0,8.336,88.7,62.513778903328,1.64042,6,P-GPS,
12900,2024-03-30 02:26:26,-34.4415260860762,150.84243560781,1.64042,,,62.513778903328,6.233596,0,2.96257555412,4.8851379516,14,4,11.741,62.841862903328,1.968504,0.223694,2.96508539672,0,0,0,125.1, -1.3, 1.5,0,0,1024,1024,1024,1684,0,0,0,100,142.7,0,0,97,3.881,3.88,3.908,0,0,0,8.336,88.7,62.513778903328,1.64042,6,P-GPS,
13000,2024-03-30 02:26:26,-34.4415259493977,150.842435547191,1.64042,,,62.513778903328,6.233596,0,2.96816282464,4.9382219428,14,4,11.741,62.841862903328,1.968504,0.223694,2.96816282464,0,0,0,132.2, -1.6, 1.7,0,0,1024,1024,1024,1684,0,0,0,100,151.7,0,0,97,3.881,3.88,3.908,0,0,0,8.336,88.7,62.513778903328,1.64042,6,P-GPS,
13100,2024-03-30 02:26:26,-34.4415258270266,150.842435485279,1.64042,,,62.513778903328,6.233596,0,2.97191938644,4.9866143328,14,4,11.741,62.841862903328,1.968504,0.223694,2.97191938644,0,0,0,140.8, -1.9, 1.7,0,0,1024,1024,1024,1684,0,0,0,100,160.7,0,0,97,3.881,3.88,3.908,0,0,0,8.336,88.7,62.513778903328,1.64042,6,P-GPS,
13200,2024-03-30 02:26:26,-34.4415256720085,150.842435440585,1.64042,,,62.513778903328,6.233596,0,2.98670941316,5.0447508176,14,4,11.741,62.841862903328,1.968504,0.223694,2.98670941316,0,0,0,149.3, -2, 1.9,0,0,1024,1024,1024,1684,0,0,0,100,169.7,0,0,97,3.881,3.88,3.908,0,0,0,8.336,88.7,62.513778903328,1.64042,6,P-GPS,
13300,2024-03-30 02:26:26,-34.4415255517023,150.842435398521,1.64042,,,62.513778903328,6.233596,0,2.99697844236,5.0904201104,14,4,11.741,62.841862903328,1.968504,0.223694,2.99697844236,0,0,0,158.1, -2.2, 2.1,0,0,1024,1024,1024,1502,0,0,0,72,178.7,0,0,97,3.881,3.88,3.908,0,0,0,8.336,88.7,62.513778903328,1.64042,6,P-GPS,
13400,2024-03-30 02:26:27,-34.4415254234461,150.842435366797,1.64042,,,62.513778903328,6.233596,0,3.012057183,5.1381891408,14,4,11.741,62.841862903328,1.968504,0.223694,3.012057183,0,0,0,167, -2.2, 2.2,0,0,1024,1024,1024,1024,0,0,0,0,187.9,0,0,97,3.881,3.88,3.908,0,0,0,8.336,88.7,62.513778903328,1.64042,6,P-GPS,
13500,2024-03-30 02:26:27,-34.4415253516089,150.842435321305,1.64042,,,62.513778903328,6.233596,0,3.01364182872,5.1677495092,14,4,11.741,62.841862903328,1.968504,0.223694,3.01364182872,0,0,0,175.7, -2.2, 1.9,0,0,1024,1024,1024,1024,0,0,0,0,191.2,0,0,97,3.881,3.88,3.908,0,0,0,8.336,88.7,62.513778903328,1.64042,6,P-GPS,
13600,2024-03-30 02:26:27,-34.4415253259121,150.842435286628,1.64042,,,62.513778903328,6.233596,0,3.00954077872,5.1817915044,14,4,11.741,62.841862903328,1.968504,0.223694,3.01364182872,0,0,0,184.1, -2.2, 1.6,0,0,1024,1024,1024,1024,0,0,0,0,191.2,0,0,97,3.881,3.88,3.908,0,0,0,8.336,88.7,62.513778903328,1.64042,6,P-GPS,
13700,2024-03-30 02:26:27,-34.441525393017,150.842435243759,1.64042,,,62.513778903328,6.233596,0.223694,2.98586295644,5.2094489856,14,4,11.741,62.841862903328,1.968504,0.223694,3.01364182872,-0.223694,0,0,187.8, -1.6, 1.8,0,0,1024,1024,1024,1024,0,0,0,0,191.2,0,0,97,3.881,3.88,3.908,0,0,0,8.336,88.7,62.513778903328,1.64042,6,P-GPS,
13800,2024-03-30 02:26:27,-34.4415255338741,150.842435210905,1.64042,,,62.513778903328,6.233596,0.223694,2.95124025192,5.2617783836,14,4,11.677,62.841862903328,1.968504,0.223694,3.01364182872,-0.223694,0,0,189.6, -1.2, 1.4,0,0,1024,1024,1024,1024,0,0,0,0,191.2,0,0,97,3.873,3.873,3.903,0,0,0,8.45,88.88,62.513778903328,1.64042,6,P-GPS,
13900,2024-03-30 02:26:27,-34.4415257071503,150.842435156171,1.64042,,,62.513778903328,6.233596,0.223694,2.90561361004,5.3271327164,14,4,11.677,62.841862903328,1.968504,0.223694,3.01364182872,-0.223694,0,0,190.5, -1, 0.9,0,0,1024,1024,1024,1215,0,0,0,29,191.3,0,0,97,3.873,3.873,3.903,0,0,0,8.45,88.88,62.513778903328,1.64042,6,P-GPS,
14000,2024-03-30 02:26:27,-34.4415259097679,150.842435105553,1.64042,,,62.513778903328,6.233596,0.223694,2.85678486832,5.4025920364,14,4,11.677,62.841862903328,1.968504,0.223694,3.01364182872,-0.223694,0,0,190.8, -0.9, 0.5,0,0,1024,1024,1024,1215,0,0,0,29,191.4,0,0,97,3.873,3.873,3.903,0,0,0,8.45,88.88,62.513778903328,1.64042,6,P-GPS,
14100,2024-03-30 02:26:27,-34.4415260680428,150.842435023179,1.64042,,,62.513778903328,6.233596,0,2.80800205836,5.4654529308,14,4,11.677,62.841862903328,1.968504,0.223694,3.01364182872,0,0,0,191.1, -1, 0.2,0,0,1024,1024,1024,1024,0,0,0,0,191.7,0,0,97,3.873,3.873,3.903,0,0,0,8.45,88.88,62.513778903328,1.64042,6,P-GPS,
14200,2024-03-30 02:26:27,-34.4415262149383,150.84243493134,1.64042,,,62.513778903328,6.233596,0,2.75909129564,5.5257219616,14,4,11.677,62.841862903328,1.968504,0.223694,3.01364182872,0,0,0,191.4, -1, 0,0,0,1024,1024,1024,1024,0,0,0,0,191.7,0,0,97,3.873,3.873,3.903,0,0,0,8.45,88.88,62.513778903328,1.64042,6,P-GPS,
14300,2024-03-30 02:26:27,-34.4415263175791,150.842434820301,1.64042,,,62.513778903328,6.233596,0,2.71252305268,5.5759188136,14,4,11.677,62.841862903328,1.968504,0.223694,3.01364182872,0,0,0,191.8, -1.1, 0,0,0,1024,1024,1024,1024,0,0,0,0,191.7,0,0,97,3.873,3.873,3.903,0,0,0,8.45,88.88,62.513778903328,1.64042,6,P-GPS,
14400,2024-03-30 02:26:28,-34.4415264001314,150.842434722005,1.64042,,,62.513778903328,6.233596,0,2.67272974432,5.6181432244,14,4,11.677,62.841862903328,1.968504,0.223694,3.01364182872,0,0,0,191.8, -1.1, -0.1,0,0,1024,1024,1024,1024,0,0,0,0,191.7,0,0,97,3.873,3.873,3.903,0,0,0,8.45,88.88,62.513778903328,1.64042,6,P-GPS,
14500,2024-03-30 02:26:28,-34.4415264696692,150.842434642758,1.64042,,,62.513778903328,6.233596,0,2.64023302412,5.6529529368,14,4,11.677,62.841862903328,1.968504,0.223694,3.01364182872,0,0,0,191.8, -1, -0.1,0,0,1024,1024,1024,1024,0,0,0,0,191.7,0,0,97,3.873,3.873,3.903,0,0,0,8.45,88.88,62.513778903328,1.64042,6,P-GPS,
14600,2024-03-30 02:26:28,-34.4415265013294,150.842434573387,1.64042,,,62.513778903328,6.233596,0,2.61641740656,5.6768046436,14,4,11.677,62.841862903328,1.968504,0.223694,3.01364182872,0,0,0,191.7, -1.1, -0.3,0,0,1024,1024,1024,1024,0,0,0,0,191.7,0,0,97,3.873,3.873,3.903,0,0,0,8.45,88.88,62.513778903328,1.64042,6,P-GPS,
14700,2024-03-30 02:26:28,-34.4415265252187,150.842434517739,1.64042,,,62.513778903328,6.233596,0,2.59755257656,5.695702282,14,4,11.677,62.841862903328,1.968504,0.223694,3.01364182872,0,0,0,191.8, -1.2, -0.2,0,0,1024,1024,1024,1024,0,0,0,0,191.7,0,0,97,3.873,3.873,3.903,0,0,0,8.45,88.88,62.513778903328,1.64042,6,P-GPS,
14800,2024-03-30 02:26:28,-34.4415264966819,150.842434463177,1.64042,,,62.513778903328,6.233596,0,2.5872868282,5.7151248548,13,4,11.741,62.841862903328,1.968504,0.223694,3.01364182872,0,0,0,191.9, -1.4, 0,0,0,1024,1024,1024,1024,0,0,0,0,191.7,0,0,97,3.873,3.873,3.903,0,0,0,8.45,88.88,62.513778903328,1.64042,6,P-GPS,
14900,2024-03-30 02:26:28,-34.4415264704704,150.842434408733,1.64042,,,62.513778903328,6.233596,0,2.57678157852,5.73408811,13,4,11.741,62.841862903328,1.968504,0.223694,3.01364182872,0,0,0,191.9, -1.4, 0,0,0,1024,1024,1024,1024,0,0,0,0,191.7,0,0,97,3.873,3.873,3.903,0,0,0,8.45,88.88,62.513778903328,1.64042,6,P-GPS,
15000,2024-03-30 02:26:28,-34.4415264100812,150.842434351537,1.64042,,,62.513778903328,6.233596,0,2.57125008228,5.7620408668,13,4,11.741,62.841862903328,1.968504,0.223694,3.01364182872,0,0,0,191.8, -1.2, 0.1,0,0,1024,1024,1024,1024,0,0,0,0,191.7,0,0,97,3.873,3.873,3.903,0,0,0,8.45,88.88,62.513778903328,1.64042,6,P-GPS,
15100,2024-03-30 02:26:28,-34.4415263856708,150.842434302857,1.64042,,,62.513778903328,6.233596,0,2.562254019,5.77919966,13,4,11.741,62.841862903328,1.968504,0.223694,3.01364182872,0,0,0,191.8, -1.3, 0.2,0,0,1024,1024,1024,1024,0,0,0,0,191.7,0,0,97,3.873,3.873,3.903,0,0,0,8.45,88.88,62.513778903328,1.64042,6,P-GPS,
15200,2024-03-30 02:26:28,-34.4415263339905,150.842434243822,1.64042,,,62.513778903328,6.233596,0,2.555200213,5.8050854876,12,4,11.741,62.841862903328,1.968504,0.223694,3.01364182872,0,0,0,191.8, -1.7, 0,0,0,1024,1024,1024,1024,0,0,0,0,191.7,0,0,97,3.873,3.873,3.903,0,0,0,8.45,88.88,62.513778903328,1.64042,6,P-GPS,
15300,2024-03-30 02:26:28,-34.4415263187288,150.842434185014,1.64042,,,62.513778903328,6.233596,0,2.54217199736,5.823655042,12,4,11.741,62.841862903328,1.968504,0.223694,3.01364182872,0,0,0,191.8, -1.5, -0.1,0,0,1024,1024,1024,1024,0,0,0,0,191.7,0,0,97,3.873,3.873,3.903,0,0,0,8.45,88.88,62.513778903328,1.64042,6,P-GPS,
15400,2024-03-30 02:26:29,-34.4415262699992,150.842434107221,1.64042,,,62.513778903328,6.233596,0,2.53002304684,5.8530513684,12,4,11.741,62.841862903328,1.968504,0.223694,3.01364182872,0,0,0,191.7, -1.3, 0,0,0,1024,1024,1024,1024,0,0,0,0,191.7,0,0,97,3.873,3.873,3.903,0,0,0,8.45,88.88,62.513778903328,1.64042,6,P-GPS,
15500,2024-03-30 02:26:29,-34.4415262380459,150.842434023598,1.64042,,,62.513778903328,6.233596,0,2.51363853188,5.8807744664,12,4,11.741,62.841862903328,1.968504,0.223694,3.01364182872,0,0,0,191.6, -1.1, -0.1,0,0,1024,1024,1024,1024,0,0,0,0,191.7,0,0,97,3.873,3.873,3.903,0,0,0,8.45,88.88,62.513778903328,1.64042,6,P-GPS,
15600,2024-03-30 02:26:29,-34.4415261857826,150.842433939033,1.64042,,,62.513778903328,6.233596,0,2.50088918764,5.912565806,12,4,11.741,62.841862903328,1.968504,0.223694,3.01364182872,0,0,0,191.8, -1.1, 0,0,0,1024,1024,1024,1024,0,0,0,0,191.7,0,0,97,3.873,3.873,3.903,0,0,0,8.45,88.88,62.513778903328,1.64042,6,P-GPS,
15700,2024-03-30 02:26:29,-34.4415261681921,150.842433874139,1.64042,,,62.513778903328,6.233596,0,2.48719168064,5.9331366728,12,4,11.741,62.841862903328,1.968504,0.223694,3.01364182872,0,0,0,191.7, -1, 0,0,0,1024,1024,1024,1024,0,0,0,0,191.7,0,0,97,3.873,3.873,3.903,0,0,0,8.45,88.88,62.513778903328,1.64042,6,P-GPS,
15800,2024-03-30 02:26:29,-34.4415261351282,150.842433812752,1.64042,,,62.513778903328,6.233596,0,2.47737540736,5.9551839176,12,4,11.978,62.841862903328,1.968504,0.223694,3.01364182872,0,0,0,191.6, -1, 0,0,0,1024,1024,1024,1024,0,0,0,0,191.7,0,0,97,3.867,3.868,3.898,0,0,0,8.386,88.88,62.513778903328,1.64042,6,P-GPS,
15900,2024-03-30 02:26:29,-34.4415261263737,150.84243376457,1.64042,,,62.513778903328,6.233596,0,2.4665519162,5.9700461228,12,4,11.978,62.841862903328,1.968504,0.223694,3.01364182872,0,0,0,191.8, -1.1, 0.3,0,0,1024,1024,1024,1024,0,0,0,0,191.7,0,0,97,3.867,3.868,3.898,0,0,0,8.386,88.88,62.513778903328,1.64042,6,P-GPS,
16000,2024-03-30 02:26:29,-34.4415261034094,150.842433734146,1.64042,,,62.513778903328,6.233596,0,2.4630250132,5.982447698,12,4,11.978,62.841862903328,1.968504,0.223694,3.01364182872,0,0,0,191.7, -1.1, 0.4,0,0,1024,1024,1024,1024,0,0,0,0,191.7,0,0,97,3.867,3.868,3.898,0,0,0,8.386,88.88,62.513778903328,1.64042,6,P-GPS,
16100,2024-03-30 02:26:29,-34.4415261002925,150.842433715136,1.64042,,,62.513778903328,6.56168,0,2.45872383196,5.9882875932,12,4,11.978,62.841862903328,1.968504,0.223694,3.01364182872,0,0,0,191.6, -1, 0.5,0,0,1024,1024,1024,1024,0,0,0,0,191.7,0,0,97,3.867,3.868,3.898,0,0,0,8.386,88.88,62.513778903328,1.64042,6,P-GPS,
16200,2024-03-30 02:26:29,-34.4415260867895,150.842433726129,1.64042,,,62.513778903328,6.56168,0,2.4641076904,5.9942259136,12,4,11.978,62.841862903328,1.968504,0.223694,3.01364182872,0,0,0,191.7, -1, 0.5,0,0,1024,1024,1024,1024,0,0,0,0,191.7,0,0,97,3.867,3.868,3.898,0,0,0,8.386,88.88,62.513778903328,1.64042,6,P-GPS,
16300,2024-03-30 02:26:29,-34.4415260884831,150.842433741296,1.64042,,,62.513778903328,6.56168,0,2.46768708684,5.9988190896,12,4,11.978,62.841862903328,1.968504,0.223694,3.01364182872,0,0,0,191.8, -1.1, 0.5,0,0,1024,1024,1024,1024,0,0,0,0,191.7,0,0,97,3.867,3.868,3.898,0,0,0,8.386,88.88,62.513778903328,1.64042,6,P-GPS,
16400,2024-03-30 02:26:30,-34.4415260795038,150.842433770782,1.64042,,,62.513778903328,6.56168,0,2.47697186404,6.0082679088,13,4,11.978,62.841862903328,1.968504,0.223694,3.01364182872,0,0,0,191.7, -0.9, 0.6,0,0,1024,1024,1024,1024,0,0,0,0,191.7,0,0,97,3.867,3.868,3.898,0,0,0,8.386,88.88,62.513778903328,1.64042,6,P-GPS,
16500,2024-03-30 02:26:30,-34.4415260805753,150.842433772834,1.64042,,,62.513778903328,6.56168,0,2.4772966672,6.0089896936,13,4,11.978,62.841862903328,1.968504,0.223694,3.01364182872,0,0,0,191.7, -0.9, 0.7,0,1,1024,1024,1024,1024,0,0,0,0,191.7,0,0,97,3.867,3.868,3.898,0,0,0,8.386,88.88,62.513778903328,1.64042,6,P-GPS,
16600,2024-03-30 02:26:30,-34.4415260677237,150.842433766736,1.64042,,,62.513778903328,6.56168,0,2.47816280896,6.0140421872,13,4,11.978,62.841862903328,1.968504,0.223694,3.01364182872,0,0,0,191.8, -1, 0.6,0,1,1024,1024,1024,1024,0,0,0,0,191.7,0,0,97,3.867,3.868,3.898,0,0,0,8.386,88.88,62.513778903328,1.64042,6,P-GPS,
16700,2024-03-30 02:26:30,-34.4415260646361,150.842433725353,1.64042,,,62.513778903328,6.56168,0,2.46812015772,6.0265421876,13,4,11.978,62.841862903328,1.968504,0.223694,3.01364182872,0,0,0,191.7, -0.9, 0.5,0,1,1024,1024,1024,1024,0,0,0,0,191.7,0,0,97,3.867,3.868,3.898,0,0,0,8.386,88.88,62.513778903328,1.64042,6,P-GPS,
16800,2024-03-30 02:26:30,-34.4415260535888,150.842433677805,1.64042,,,62.513778903328,6.233596,0,2.45804797892,6.0414043928,14,4,11.827,62.841862903328,1.968504,0.223694,3.01364182872,0,0,0,191.7, -1, 0.5,0,1,1024,1024,1024,1024,0,0,0,0,191.7,0,0,97,3.861,3.862,3.891,0,0,0,8.486,89.06,62.513778903328,1.64042,6,P-GPS,
16900,2024-03-30 02:26:30,-34.4415260512796,150.842433617492,1.64042,,,62.513778903328,6.233596,0,2.443077506,6.0595802464,14,4,11.827,62.841862903328,1.968504,0.223694,3.01364182872,0,0,0,191.7, -1.1, 0.6,0,1,1024,1024,1024,1024,0,0,0,0,191.7,0,0,97,3.861,3.862,3.891,0,0,0,8.486,89.06,62.513778903328,1.64042,6,P-GPS,
17000,2024-03-30 02:26:30,-34.4415260409651,150.842433553521,1.64042,,,62.513778903328,6.233596,0,2.42877632444,6.0791996696,14,4,11.827,62.841862903328,1.968504,0.223694,3.01364182872,0,0,0,191.8, -1.3, 0.6,0,1,1024,1024,1024,1024,0,0,0,0,191.7,0,0,97,3.861,3.862,3.891,0,0,0,8.486,89.06,62.513778903328,1.64042,6,P-GPS,
17100,2024-03-30 02:26:30,-34.4415260431407,150.842433482841,1.64042,,,62.513778903328,6.233596,0,2.4104003396,6.1004595128,14,4,11.827,62.841862903328,1.968504,0.223694,3.01364182872,0,0,0,191.9, -1.4, 0.7,0,1,1024,1024,1024,1024,0,0,0,0,191.7,0,0,97,3.861,3.862,3.891,0,0,0,8.486,89.06,62.513778903328,1.64042,6,P-GPS,
17200,2024-03-30 02:26:30,-34.4415260405058,150.842433425929,1.64042,,,62.513778903328,6.233596,0,2.39649942052,6.117618306,14,4,11.827,62.841862903328,1.968504,0.223694,3.01364182872,0,0,0,191.9, -1.3, 0.7,0,1,1024,1024,1024,1024,0,0,0,0,191.7,0,0,97,3.861,3.862,3.891,0,0,0,8.486,89.06,62.513778903328,1.64042,6,P-GPS,
17300,2024-03-30 02:26:30,-34.4415260479348,150.842433375758,1.64042,,,62.513778903328,6.233596,0,2.3823491576,6.1329398288,14,4,11.827,62.841862903328,1.968504,0.223694,3.01364182872,0,0,0,191.9, -1.2, 0.9,0,1,1024,1024,1024,1024,0,0,0,0,191.7,0,0,97,3.861,3.862,3.891,0,0,0,8.486,89.06,62.513778903328,1.64042,6,P-GPS,
17400,2024-03-30 02:26:31,-34.441526028742,150.84243333204,1.64042,,,62.513778903328,6.233596,0,2.3751477138,6.1478676508,14,4,11.827,62.841862903328,1.968504,0.223694,3.01364182872,0,0,0,191.8, -1.1, 0.9,0,1,1024,1024,1024,1024,0,0,0,0,191.7,0,0,97,3.861,3.862,3.891,0,0,0,8.486,89.06,62.513778903328,1.64042,6,P-GPS,
17500,2024-03-30 02:26:31,-34.4415260044391,150.842433262745,1.64042,,,62.513778903328,6.233596,0,2.36264443256,6.1705054468,14,4,11.827,62.841862903328,1.968504,0.223694,3.01364182872,0,0,0,191.8, -1.2, 0.8,0,1,1024,1024,1024,1024,0,0,0,0,191.7,0,0,97,3.861,3.862,3.891,0,0,0,8.486,89.06,62.513778903328,1.64042,6,P-GPS,
17600,2024-03-30 02:26:31,-34.4415259499546,150.842433199337,1.64042,,,62.513778903328,6.233596,0,2.3579561122,6.1980645028,14,4,11.827,62.841862903328,1.968504,0.223694,3.01364182872,0,0,0,191.9, -1.3, 0.6,0,1,1024,1024,1024,1024,0,0,0,0,191.7,0,0,97,3.861,3.862,3.891,0,0,0,8.486,89.06,62.513778903328,1.64042,6,P-GPS,
17700,2024-03-30 02:26:31,-34.4415259044819,150.842433121731,1.64042,,,62.513778903328,6.233596,0,2.3481956132,6.226706236,14,4,11.827,62.841862903328,1.968504,0.223694,3.01364182872,0,0,0,191.9, -1.4, 0.5,0,1,1024,1024,1024,1024,0,0,0,0,191.7,0,0,97,3.861,3.862,3.891,0,0,0,8.486,89.06,62.513778903328,1.64042,6,P-GPS,
17800,2024-03-30 02:26:31,-34.4415258336283,150.842433060507,1.64042,,,62.513778903328,6.56168,0,2.34815296228,6.2584647672,14,4,11.677,62.841862903328,1.968504,0.223694,3.01364182872,0,0,0,191.9, -1.3, 0.5,0,1,1024,1024,1024,1024,0,0,0,0,191.7,0,0,97,3.861,3.862,3.891,0,0,0,8.432,89.24,62.513778903328,1.64042,6,P-GPS,
17900,2024-03-30 02:26:31,-34.4415257833192,150.842432990028,1.64042,,,62.513778903328,6.233596,0,2.34184062612,6.2865159492,14,4,11.677,62.841862903328,1.968504,0.223694,3.01364182872,0,0,0,191.9, -1.3, 0.5,0,1,1024,1024,1024,1024,0,0,0,0,191.7,0,0,97,3.861,3.862,3.891,0,0,0,8.432,89.24,62.513778903328,1.64042,6,P-GPS,
18000,2024-03-30 02:26:31,-34.4415257117067,150.842432937849,1.64042,,,62.513778903328,6.233596,0,2.3449311774,6.3169949528,14,4,11.677,62.841862903328,1.968504,0.223694,3.01364182872,0,0,0,191.7, -1.3, 0.7,0,1,1024,1024,1024,1024,0,0,0,0,191.7,0,0,97,3.861,3.862,3.891,0,0,0,8.432,89.24,62.513778903328,1.64042,6,P-GPS,
18100,2024-03-30 02:26:31,-34.4415256623388,150.84243287032,1.64042,,,62.513778903328,6.56168,0,2.33978682028,6.3441274996,14,4,11.677,62.841862903328,1.968504,0.223694,3.01364182872,0,0,0,191.8, -1.2, 0.6,0,1,1024,1024,1024,1024,0,0,0,0,191.7,0,0,97,3.861,3.862,3.891,0,0,0,8.432,89.24,62.513778903328,1.64042,6,P-GPS,
18200,2024-03-30 02:26:31,-34.4415255942536,150.842432834988,1.64042,,,62.513778903328,6.56168,0,2.34677829032,6.3711616212,14,4,11.677,62.841862903328,1.968504,0.223694,3.01364182872,0,0,0,191.8, -1.3, 0.6,0,1,1024,1024,1024,1024,0,0,0,0,191.7,0,0,97,3.861,3.862,3.891,0,0,0,8.432,89.24,62.513778903328,1.64042,6,P-GPS,
18300,2024-03-30 02:26:31,-34.4415255409123,150.842432800022,1.64042,,,62.513778903328,6.56168,0,2.3507546684,6.3932744828,14,4,11.677,62.841862903328,1.968504,0.223694,3.01364182872,0,0,0,191.9, -1.2, 0.5,0,1,1024,1024,1024,1024,0,0,0,0,191.7,0,0,97,3.861,3.862,3.891,0,0,0,8.432,89.24,62.513778903328,1.64042,6,P-GPS,
18400,2024-03-30 02:26:32,-34.4415254515498,150.842432789312,1.64042,,,62.513778903328,6.56168,0,2.36893380284,6.4260500744,14,4,11.677,62.841862903328,1.968504,0.223694,3.01364182872,0,0,0,191.8, -1.2, 0.3,0,1,1024,1024,1024,1024,0,0,0,0,191.7,0,0,97,3.861,3.862,3.891,0,0,0,8.432,89.24,62.513778903328,1.64042,6,P-GPS,
